$GPGGA,054719.00,4043.9346,N,08403.4309,W,1,14,00.7,273.4,M,-33.4,M,,*63
$GPRMC,054719.00,A,4043.9346,N,08403.4309,W,00.00,319.9,210914,,,A*45
$GPGSV,4,1,14,01,21,291,29,04,14,307,21,11,08,267,19,12,15,039,21*71
$GPGSV,4,2,14,14,58,063,31,20,07,317,00,22,39,156,43,25,39,070,37*74
$GPGSV,4,3,14,31,72,241,32,32,48,306,37,33,07,104,00,35,15,247,00*77
$GPGSV,4,4,14,48,22,240,00,51,37,213,38*7D
$GLGSV,2,1,07,70,14,134,36,71,65,118,27,72,55,331,38,73,57,033,01*60
$GLGSV,2,2,07,74,66,216,21,75,12,214,23,80,07,034,01*59
$GNGSA,A,3,14,25,31,22,04,32,11,01,12,,,,01.2,00.7,00.9*16
$GNGSA,A,3,71,70,72,74,75,,,,,,,,01.2,00.7,00.9*14
$PORZD,A,003.3*3C
$GPGGA,054720.00,4043.9346,N,08403.4309,W,1,14,00.7,273.4,M,-33.4,M,,*69
$GPRMC,054720.00,A,4043.9346,N,08403.4309,W,00.00,319.9,210914,,,A*4F
$GPGSV,4,1,14,01,21,291,30,04,14,307,18,11,08,267,23,12,15,039,22*79
$GPGSV,4,2,14,14,58,063,31,20,07,317,00,22,39,156,43,25,39,070,37*74
$GPGSV,4,3,14,31,72,241,32,32,48,306,37,33,07,104,00,35,15,247,00*77
$GPGSV,4,4,14,48,22,240,00,51,37,213,37*72
$GLGSV,2,1,07,70,14,134,36,71,65,118,28,72,55,331,38,73,57,033,01*6F
$GLGSV,2,2,07,74,66,216,20,75,12,214,23,80,07,034,01*58
$GNGSA,A,3,14,25,31,22,04,32,11,01,12,,,,01.2,00.7,00.9*16
$GNGSA,A,3,71,70,72,74,75,,,,,,,,01.2,00.7,00.9*14
$PORZD,A,003.3*3C
$GNGBS,054720.00,2.2,2.4,8.9,,,,*5C
$GPGGA,054721.00,4043.9346,N,08403.4309,W,1,14,00.7,273.4,M,-33.4,M,,*68
$GPRMC,054721.00,A,4043.9346,N,08403.4309,W,00.00,319.9,210914,,,A*4E
$GPGSV,4,1,14,01,21,291,30,04,14,307,19,11,08,267,22,12,15,039,22*79
$GPGSV,4,2,14,14,58,063,31,20,07,317,00,22,39,156,43,25,39,070,37*74
$GPGSV,4,3,14,31,72,241,33,32,48,306,37,33,07,104,00,35,15,247,00*76
$GPGSV,4,4,14,48,22,240,00,51,37,213,38*7D
$GLGSV,2,1,07,70,14,134,35,71,65,118,27,72,55,331,38,73,57,033,01*63
$GLGSV,2,2,07,74,66,216,19,75,12,214,23,80,07,034,01*52
$GNGSA,A,3,14,25,31,22,04,32,11,01,12,,,,01.2,00.7,00.9*16
$GNGSA,A,3,71,70,72,74,75,,,,,,,,01.2,00.7,00.9*14
$PORZD,A,003.3*3C
$GPGGA,054722.00,4043.9346,N,08403.4309,W,1,14,00.7,273.4,M,-33.4,M,,*6B
$GPRMC,054722.00,A,4043.9346,N,08403.4309,W,00.00,319.9,210914,,,A*4D
$GPGSV,4,1,14,01,21,291,30,04,14,307,17,11,08,267,22,12,15,039,18*7E
$GPGSV,4,2,14,14,58,063,31,20,07,317,00,22,39,156,43,25,39,070,37*74
$GPGSV,4,3,14,31,72,241,33,32,48,306,37,33,07,104,00,35,15,247,00*76
$GPGSV,4,4,14,48,22,240,00,51,37,213,38*7D
$GLGSV,2,1,07,70,14,134,36,71,65,118,27,72,55,331,38,73,57,033,01*60
$GLGSV,2,2,07,74,66,216,19,75,12,214,24,80,07,034,01*55
$GNGSA,A,3,14,25,31,22,04,32,11,01,12,,,,01.2,00.7,00.9*16
$GNGSA,A,3,71,70,72,74,75,,,,,,,,01.2,00.7,00.9*14
$PORZD,A,003.3*3C
$GPGGA,054723.00,4043.9346,N,08403.4309,W,1,14,00.7,273.4,M,-33.4,M,,*6A
$GPRMC,054723.00,A,4043.9346,N,08403.4309,W,00.00,319.9,210914,,,A*4C
$GPGSV,4,1,14,01,21,291,31,04,14,307,16,11,08,267,23,12,15,039,20*74
$GPGSV,4,2,14,14,58,063,31,20,07,317,00,22,39,156,43,25,39,070,37*74
$GPGSV,4,3,14,31,72,241,33,32,48,306,37,33,07,104,00,35,15,247,00*76
$GPGSV,4,4,14,48,22,240,00,51,37,213,38*7D
$GLGSV,2,1,07,70,14,134,36,71,65,118,27,72,55,331,38,73,57,033,01*60
$GLGSV,2,2,07,74,66,216,20,75,12,214,24,80,07,034,01*5F
$GNGSA,A,3,14,25,31,22,04,32,11,01,12,,,,01.2,00.7,00.9*16
$GNGSA,A,3,71,70,72,74,75,,,,,,,,01.2,00.7,00.9*14
$PORZD,A,003.2*3D
$GPGGA,054724.00,4043.9346,N,08403.4309,W,1,14,00.7,273.4,M,-33.4,M,,*6D
$GPRMC,054724.00,A,4043.9346,N,08403.4309,W,00.00,319.9,210914,,,A*4B
$GPGSV,4,1,14,01,21,291,31,04,14,307,20,11,08,267,24,12,15,039,25*73
$GPGSV,4,2,14,14,58,063,31,20,07,317,00,22,39,156,43,25,39,070,37*74
$GPGSV,4,3,14,31,72,241,32,32,48,306,37,33,07,104,00,35,15,247,00*77
$GPGSV,4,4,14,48,22,240,00,51,37,213,38*7D
$GLGSV,2,1,07,70,14,134,36,71,65,118,28,72,55,331,37,73,57,033,01*60
$GLGSV,2,2,07,74,66,216,20,75,12,214,23,80,07,034,01*58
$GNGSA,A,3,14,25,31,22,04,32,11,01,12,,,,01.2,00.7,00.9*16
$GNGSA,A,3,71,70,72,74,75,,,,,,,,01.2,00.7,00.9*14
$PORZD,A,003.2*3D
$GPGGA,054725.00,4043.9346,N,08403.4309,W,1,14,00.7,273.4,M,-33.4,M,,*6C
$GPRMC,054725.00,A,4043.9346,N,08403.4309,W,00.00,319.9,210914,,,A*4A
$GPGSV,4,1,14,01,21,291,31,04,14,307,14,11,08,267,25,12,15,039,23*73
$GPGSV,4,2,14,14,58,063,32,20,07,317,00,22,39,156,43,25,39,070,36*76
$GPGSV,4,3,14,31,72,241,32,32,48,306,37,33,07,104,00,35,15,247,00*77
$GPGSV,4,4,14,48,22,240,00,51,37,213,38*7D
$GLGSV,2,1,07,70,14,134,36,71,65,118,29,72,55,331,38,73,57,033,01*6E
$GLGSV,2,2,07,74,66,216,19,75,12,214,22,80,07,034,01*53
$GNGSA,A,3,14,25,31,22,04,32,11,01,12,,,,01.2,00.7,00.9*16
$GNGSA,A,3,71,70,72,74,75,,,,,,,,01.2,00.7,00.9*14
$PORZD,A,003.1*3E
$GPGGA,054726.00,4043.9346,N,08403.4309,W,1,14,00.7,273.3,M,-33.4,M,,*68
$GPRMC,054726.00,A,4043.9346,N,08403.4309,W,00.00,319.9,210914,,,A*49
$GPGSV,4,1,14,01,21,291,32,04,14,307,18,11,08,267,24,12,15,039,18*75
$GPGSV,4,2,14,14,58,063,32,20,07,317,00,22,39,156,43,25,39,070,36*76
$GPGSV,4,3,14,31,72,241,33,32,48,306,37,33,07,104,00,35,15,247,00*76
$GPGSV,4,4,14,48,22,240,00,51,37,213,38*7D
$GLGSV,2,1,07,70,14,134,36,71,65,118,29,72,55,331,37,73,57,033,01*61
$GLGSV,2,2,07,74,66,216,20,75,12,214,22,80,07,034,01*59
$GNGSA,A,3,14,25,31,22,04,32,11,01,12,,,,01.2,00.7,00.9*16
$GNGSA,A,3,71,70,72,74,75,,,,,,,,01.2,00.7,00.9*14
$PORZD,A,003.0*3F
$GPGGA,054727.00,4043.9346,N,08403.4309,W,1,14,00.7,273.3,M,-33.4,M,,*69
$GPRMC,054727.00,A,4043.9346,N,08403.4309,W,00.00,319.9,210914,,,A*48
$GPGSV,4,1,14,01,21,291,32,04,14,307,20,11,08,267,24,12,15,039,22*77
$GPGSV,4,2,14,14,58,063,32,20,07,317,00,22,39,156,43,25,39,070,36*76
$GPGSV,4,3,14,31,72,241,33,32,48,306,37,33,07,104,00,35,15,247,00*76
$GPGSV,4,4,14,48,22,240,00,51,37,213,37*72
$GLGSV,2,1,07,70,14,134,36,71,65,118,29,72,55,331,38,73,57,033,01*6E
$GLGSV,2,2,07,74,66,216,21,75,12,214,23,80,07,034,01*59
$GNGSA,A,3,14,25,31,22,04,32,11,01,12,,,,01.2,00.7,00.9*16
$GNGSA,A,3,71,70,72,74,75,,,,,,,,01.2,00.7,00.9*14
$PORZD,A,003.0*3F
$GPGGA,054728.00,4043.9346,N,08403.4309,W,1,14,00.7,273.3,M,-33.4,M,,*66
$GPRMC,054728.00,A,4043.9346,N,08403.4309,W,00.00,319.9,210914,,,A*47
$GPGSV,4,1,14,01,21,291,32,04,14,307,18,11,08,267,25,12,15,039,17*7B
$GPGSV,4,2,14,14,58,063,31,20,07,317,00,22,39,156,43,25,39,070,37*74
$GPGSV,4,3,14,31,72,241,33,32,48,306,36,33,07,104,00,35,15,247,00*77
$GPGSV,4,4,14,48,22,240,00,51,37,213,37*72
$GLGSV,2,1,07,70,14,134,36,71,65,118,29,72,55,331,37,73,57,033,01*61
$GLGSV,2,2,07,74,66,216,18,75,12,214,25,80,07,034,01*55
$GNGSA,A,3,14,25,31,22,04,32,11,01,12,,,,01.2,00.7,00.9*16
$GNGSA,A,3,71,70,72,74,75,,,,,,,,01.2,00.7,00.9*14
$PORZD,A,003.0*3F
$GPGGA,054729.00,4043.9346,N,08403.4309,W,1,14,00.7,273.3,M,-33.4,M,,*67
$GPRMC,054729.00,A,4043.9346,N,08403.4309,W,00.00,319.9,210914,,,A*46
$GPGSV,4,1,14,01,21,291,31,04,14,307,15,11,08,267,25,12,15,039,22*73
$GPGSV,4,2,14,14,58,063,31,20,07,317,00,22,39,156,43,25,39,070,36*75
$GPGSV,4,3,14,31,72,241,32,32,48,306,37,33,07,104,00,35,15,247,00*77
$GPGSV,4,4,14,48,22,240,00,51,37,213,37*72
$GLGSV,2,1,07,70,14,134,36,71,65,118,30,72,55,331,38,73,57,033,01*66
$GLGSV,2,2,07,74,66,216,19,75,12,214,24,80,07,034,01*55
$GNGSA,A,3,14,25,31,22,04,32,11,01,12,,,,01.2,00.7,00.9*16
$GNGSA,A,3,71,70,72,74,75,,,,,,,,01.2,00.7,00.9*14
$PORZD,A,003.0*3F
$GPGGA,054730.00,4043.9346,N,08403.4309,W,1,13,00.8,273.3,M,-33.4,M,,*67
$GPRMC,054730.00,A,4043.9346,N,08403.4309,W,00.00,319.9,210914,,,A*4E
$GPGSV,4,1,14,01,21,291,31,04,14,307,02,11,08,267,26,12,15,039,24*70
$GPGSV,4,2,14,14,58,063,32,20,07,317,00,22,39,156,43,25,39,070,37*77
$GPGSV,4,3,14,31,72,241,32,32,48,306,37,33,07,104,00,35,15,247,00*77
$GPGSV,4,4,14,48,22,240,00,51,37,213,37*72
$GLGSV,2,1,07,70,14,134,36,71,65,118,30,72,55,331,38,73,57,033,01*66
$GLGSV,2,2,07,74,66,216,19,75,12,214,23,80,07,034,01*52
$GNGSA,A,3,14,25,31,22,32,11,01,12,,,,,01.2,00.8,00.9*1D
$GNGSA,A,3,71,70,72,74,75,,,,,,,,01.2,00.8,00.9*1B
$PORZD,A,003.0*3F
$GNGBS,054730.00,2.0,2.2,8.2,,,,*52
$GPGGA,054731.00,4043.9346,N,08403.4309,W,1,13,00.8,273.3,M,-33.4,M,,*66
$GPRMC,054731.00,A,4043.9346,N,08403.4309,W,00.00,319.9,210914,,,A*4F
$GPGSV,4,1,14,01,21,291,31,04,14,307,02,11,08,267,26,12,15,039,25*71
$GPGSV,4,2,14,14,58,063,31,20,07,317,00,22,39,156,43,25,39,070,36*75
$GPGSV,4,3,14,31,72,241,32,32,48,306,36,33,07,104,00,35,15,247,00*76
$GPGSV,4,4,14,48,22,240,00,51,37,213,38*7D
$GLGSV,2,1,07,70,14,134,36,71,65,118,30,72,55,331,38,73,57,033,01*66
$GLGSV,2,2,07,74,66,216,19,75,13,214,23,80,07,034,01*53
$GNGSA,A,3,14,25,31,22,32,11,01,12,,,,,01.2,00.8,00.9*1D
$GNGSA,A,3,71,70,72,74,75,,,,,,,,01.2,00.8,00.9*1B
$PORZD,A,003.0*3F
$GPGGA,054732.00,4043.9346,N,08403.4309,W,1,14,00.7,273.3,M,-33.4,M,,*6D
$GPRMC,054732.00,A,4043.9346,N,08403.4309,W,00.00,319.9,210914,,,A*4C
$GPGSV,4,1,14,01,21,291,32,04,14,307,14,11,08,267,26,12,15,039,24*74
$GPGSV,4,2,14,14,58,063,30,20,07,317,00,22,39,156,43,25,39,070,36*74
$GPGSV,4,3,14,31,72,241,33,32,48,306,37,33,07,104,00,35,15,247,00*76
$GPGSV,4,4,14,48,22,240,00,51,37,213,39*7C
$GLGSV,2,1,07,70,14,134,37,71,65,118,31,72,55,331,37,73,57,033,01*69
$GLGSV,2,2,07,74,66,216,17,75,13,214,24,80,07,034,01*5A
$GNGSA,A,3,14,25,31,22,04,32,11,01,12,,,,01.2,00.7,00.9*16
$GNGSA,A,3,71,70,72,74,75,,,,,,,,01.2,00.7,00.9*14
$PORZD,A,002.9*37
$GPGGA,054733.00,4043.9346,N,08403.4309,W,1,14,00.7,273.3,M,-33.4,M,,*6C
$GPRMC,054733.00,A,4043.9346,N,08403.4309,W,00.00,319.9,210914,,,A*4D
$GPGSV,4,1,14,01,21,291,31,04,14,307,14,11,08,267,26,12,15,039,23*70
$GPGSV,4,2,14,14,58,063,29,20,07,317,00,22,39,156,43,25,39,070,36*7C
$GPGSV,4,3,14,31,72,241,33,32,48,306,37,33,07,104,00,35,15,247,00*76
$GPGSV,4,4,14,48,22,240,00,51,37,213,37*72
$GLGSV,2,1,07,70,14,134,36,71,65,118,30,72,55,331,38,73,57,033,01*66
$GLGSV,2,2,07,74,66,216,17,75,13,214,24,80,07,034,01*5A
$GNGSA,A,3,14,25,31,22,04,32,11,01,12,,,,01.2,00.7,00.9*16
$GNGSA,A,3,71,70,72,74,75,,,,,,,,01.2,00.7,00.9*14
$PORZD,A,003.0*3F
$GPGGA,054734.00,4043.9346,N,08403.4309,W,1,14,00.7,273.3,M,-33.4,M,,*6B
$GPRMC,054734.00,A,4043.9346,N,08403.4309,W,00.00,319.9,210914,,,A*4A
$GPGSV,4,1,14,01,21,291,31,04,14,307,15,11,08,267,27,12,15,039,23*70
$GPGSV,4,2,14,14,58,063,31,20,07,317,00,22,39,156,43,25,39,070,36*75
$GPGSV,4,3,14,31,72,241,32,32,48,306,37,33,07,104,00,35,15,247,00*77
$GPGSV,4,4,14,48,22,240,00,51,37,213,38*7D
$GLGSV,2,1,07,70,14,134,35,71,65,118,30,72,55,331,38,73,57,033,01*65
$GLGSV,2,2,07,74,66,216,18,75,13,214,24,80,07,034,01*55
$GNGSA,A,3,14,25,31,22,04,32,11,01,12,,,,01.2,00.7,00.9*16
$GNGSA,A,3,71,70,72,74,75,,,,,,,,01.2,00.7,00.9*14
$PORZD,A,003.0*3F
$GPGGA,054735.00,4043.9346,N,08403.4309,W,1,14,00.7,273.3,M,-33.4,M,,*6A
$GPRMC,054735.00,A,4043.9346,N,08403.4309,W,00.00,319.9,210914,,,A*4B
$GPGSV,4,1,14,01,21,291,31,04,14,307,17,11,08,267,26,12,15,039,25*75
$GPGSV,4,2,14,14,58,063,31,20,07,317,00,22,39,156,42,25,39,070,36*74
$GPGSV,4,3,14,31,72,241,32,32,48,306,36,33,07,104,00,35,15,247,00*76
$GPGSV,4,4,14,48,22,240,00,51,37,213,37*72
$GLGSV,2,1,07,70,14,134,36,71,65,118,29,72,55,331,38,73,57,033,01*6E
$GLGSV,2,2,07,74,66,216,15,75,13,214,24,80,07,034,01*58
$GNGSA,A,3,14,25,31,22,04,32,11,01,12,,,,01.2,00.7,00.9*16
$GNGSA,A,3,71,70,72,74,75,,,,,,,,01.2,00.7,00.9*14
$PORZD,A,003.0*3F
$GPGGA,054736.00,4043.9346,N,08403.4309,W,1,14,00.7,273.3,M,-33.4,M,,*69
$GPRMC,054736.00,A,4043.9346,N,08403.4309,W,00.00,319.9,210914,,,A*48
$GPGSV,4,1,14,01,21,291,31,04,14,307,14,11,08,267,25,12,15,039,25*75
$GPGSV,4,2,14,14,58,063,32,20,07,317,00,22,39,156,42,25,39,070,36*77
$GPGSV,4,3,14,31,72,241,32,32,48,306,35,33,07,104,00,35,15,247,00*75
$GPGSV,4,4,14,48,22,240,00,51,37,213,37*72
$GLGSV,2,1,07,70,14,134,35,71,65,118,29,72,55,331,38,73,57,033,01*6D
$GLGSV,2,2,07,74,66,216,17,75,13,214,25,80,07,034,01*5B
$GNGSA,A,3,14,25,31,22,04,32,11,01,12,,,,01.2,00.7,00.9*16
$GNGSA,A,3,71,70,72,74,75,,,,,,,,01.2,00.7,00.9*14
$PORZD,A,003.0*3F
$GPGGA,054737.00,4043.9346,N,08403.4310,W,1,13,00.8,273.3,M,-33.4,M,,*68
$GPRMC,054737.00,A,4043.9346,N,08403.4310,W,00.00,319.9,210914,,,A*41
$GPGSV,4,1,14,01,21,291,31,04,14,307,02,11,08,267,25,12,15,039,25*72
$GPGSV,4,2,14,14,58,063,32,20,07,317,00,22,39,156,42,25,39,070,36*77
$GPGSV,4,3,14,31,72,241,33,32,48,306,35,33,07,104,00,35,15,247,00*74
$GPGSV,4,4,14,48,22,240,00,51,37,213,37*72
$GLGSV,2,1,07,70,14,134,36,71,65,118,29,72,55,331,38,73,57,033,01*6E
$GLGSV,2,2,07,74,66,216,15,75,13,214,24,80,07,034,01*58
$GNGSA,A,3,14,25,31,22,32,11,01,12,,,,,01.2,00.8,00.9*1D
$GNGSA,A,3,71,70,72,74,75,,,,,,,,01.2,00.8,00.9*1B
$PORZD,A,003.0*3F
$GPGGA,054738.00,4043.9346,N,08403.4310,W,1,13,00.8,273.3,M,-33.4,M,,*67
$GPRMC,054738.00,A,4043.9346,N,08403.4310,W,00.00,319.9,210914,,,A*4E
$GPGSV,4,1,14,01,21,291,30,04,14,307,02,11,08,267,26,12,15,039,23*76
$GPGSV,4,2,14,14,58,063,31,20,07,317,00,22,39,156,42,25,39,070,36*74
$GPGSV,4,3,14,31,72,241,34,32,48,306,35,33,07,104,00,35,15,247,00*73
$GPGSV,4,4,14,48,22,240,00,51,37,213,37*72
$GLGSV,2,1,07,70,14,134,36,71,65,118,29,72,55,331,38,73,57,033,01*6E
$GLGSV,2,2,07,74,66,216,14,75,13,214,25,80,07,034,01*58
$GNGSA,A,3,14,25,31,22,32,11,01,12,,,,,01.2,00.8,00.9*1D
$GNGSA,A,3,71,70,72,74,75,,,,,,,,01.2,00.8,00.9*1B
$PORZD,A,003.0*3F
$GPGGA,054739.00,4043.9346,N,08403.4310,W,1,13,00.8,273.3,M,-33.4,M,,*66
$GPRMC,054739.00,A,4043.9346,N,08403.4310,W,00.00,319.9,210914,,,A*4F
$GPGSV,4,1,14,01,21,291,30,04,14,307,01,11,08,267,26,12,15,039,26*70
$GPGSV,4,2,14,14,58,063,30,20,07,317,00,22,39,156,42,25,39,070,36*75
$GPGSV,4,3,14,31,72,241,34,32,48,306,35,33,07,104,00,35,15,247,00*73
$GPGSV,4,4,14,48,22,240,00,51,37,213,37*72
$GLGSV,2,1,07,70,14,134,35,71,65,118,28,72,55,331,37,73,57,033,01*63
$GLGSV,2,2,07,74,66,216,17,75,13,214,25,80,07,034,01*5B
$GNGSA,A,3,14,25,31,22,32,11,01,12,,,,,01.2,00.8,00.9*1D
$GNGSA,A,3,71,70,72,74,75,,,,,,,,01.2,00.8,00.9*1B
$PORZD,A,002.9*37
$GPGGA,054740.00,4043.9346,N,08403.4310,W,1,13,00.8,273.3,M,-33.4,M,,*68
$GPRMC,054740.00,A,4043.9346,N,08403.4310,W,00.00,319.9,210914,,,A*41
$GPGSV,4,1,14,01,21,291,31,04,14,307,01,11,08,267,25,12,15,039,23*77
$GPGSV,4,2,14,14,58,063,31,20,07,317,00,22,39,156,43,25,39,070,36*75
$GPGSV,4,3,14,31,72,241,35,32,48,306,35,33,07,104,00,35,15,247,00*72
$GPGSV,4,4,14,48,22,240,00,51,37,213,37*72
$GLGSV,2,1,07,70,14,134,36,71,65,118,27,72,55,331,37,73,57,033,01*6F
$GLGSV,2,2,07,74,66,216,15,75,13,214,26,80,07,034,01*5A
$GNGSA,A,3,14,25,31,22,32,11,01,12,,,,,01.2,00.8,00.9*1D
$GNGSA,A,3,71,70,72,74,75,,,,,,,,01.2,00.8,00.9*1B
$PORZD,A,002.9*37
$GNGBS,054740.00,1.9,2.1,8.0,,,,*5E
$GPGGA,054741.00,4043.9346,N,08403.4310,W,1,13,00.8,273.3,M,-33.4,M,,*69
$GPRMC,054741.00,A,4043.9346,N,08403.4310,W,00.00,319.9,210914,,,A*40
$GPGSV,4,1,14,01,21,291,30,04,14,307,01,11,08,267,25,12,15,039,22*77
$GPGSV,4,2,14,14,58,063,30,20,07,317,00,22,39,156,42,25,39,070,36*75
$GPGSV,4,3,14,31,72,241,34,32,48,306,35,33,07,104,00,35,15,247,00*73
$GPGSV,4,4,14,48,22,240,00,51,37,213,36*73
$GLGSV,2,1,07,70,14,134,35,71,65,118,26,72,55,331,37,73,57,033,01*6D
$GLGSV,2,2,07,74,66,216,17,75,13,214,25,80,07,034,01*5B
$GNGSA,A,3,14,25,31,22,32,11,01,12,,,,,01.2,00.8,00.9*1D
$GNGSA,A,3,71,70,72,74,75,,,,,,,,01.2,00.8,00.9*1B
$PORZD,A,002.9*37
$GPGGA,054742.00,4043.9346,N,08403.4310,W,1,13,00.8,273.3,M,-33.4,M,,*6A
$GPRMC,054742.00,A,4043.9346,N,08403.4310,W,00.00,319.9,210914,,,A*43
$GPGSV,4,1,14,01,21,291,30,04,14,307,01,11,08,267,26,12,15,039,21*77
$GPGSV,4,2,14,14,58,063,31,20,07,317,00,22,39,156,42,25,39,070,35*77
$GPGSV,4,3,14,31,72,241,34,32,48,306,36,33,07,104,00,35,15,247,00*70
$GPGSV,4,4,14,48,22,240,00,51,37,213,37*72
$GLGSV,2,1,07,70,14,134,36,71,65,118,26,72,55,331,37,73,57,033,01*6E
$GLGSV,2,2,07,74,66,216,17,75,13,214,25,80,07,034,01*5B
$GNGSA,A,3,14,25,31,22,32,11,01,12,,,,,01.2,00.8,00.9*1D
$GNGSA,A,3,71,70,72,74,75,,,,,,,,01.2,00.8,00.9*1B
$PORZD,A,002.9*37
$GPGGA,054743.00,4043.9346,N,08403.4310,W,1,13,00.8,273.3,M,-33.4,M,,*6B
$GPRMC,054743.00,A,4043.9346,N,08403.4310,W,00.00,319.9,210914,,,A*42
$GPGSV,4,1,14,01,21,291,30,04,14,307,01,11,08,267,26,12,15,039,22*74
$GPGSV,4,2,14,14,58,063,30,20,07,317,00,22,39,156,42,25,39,070,35*76
$GPGSV,4,3,14,31,72,241,34,32,48,306,35,33,07,104,00,35,15,247,00*73
$GPGSV,4,4,14,48,22,240,00,51,37,213,37*72
$GLGSV,2,1,07,70,14,134,36,71,65,118,26,72,55,331,37,73,57,033,01*6E
$GLGSV,2,2,07,74,66,216,16,75,13,214,25,80,07,034,01*5A
$GNGSA,A,3,14,25,31,22,32,11,01,12,,,,,01.2,00.8,00.9*1D
$GNGSA,A,3,71,70,72,74,75,,,,,,,,01.2,00.8,00.9*1B
$PORZD,A,003.0*3F
$GPGGA,054744.00,4043.9346,N,08403.4310,W,1,13,00.8,273.3,M,-33.4,M,,*6C
$GPRMC,054744.00,A,4043.9346,N,08403.4310,W,00.00,319.9,210914,,,A*45
$GPGSV,4,1,14,01,21,291,30,04,14,307,01,11,08,267,25,12,15,039,26*73
$GPGSV,4,2,14,14,58,063,31,20,07,317,00,22,39,156,42,25,39,070,35*77
$GPGSV,4,3,14,31,72,241,34,32,48,306,36,33,07,104,00,35,15,247,00*70
$GPGSV,4,4,14,48,22,240,00,51,37,213,37*72
$GLGSV,2,1,07,70,14,134,35,71,65,118,27,72,55,331,37,73,57,033,01*6C
$GLGSV,2,2,07,74,66,216,15,75,13,214,26,80,07,034,01*5A
$GNGSA,A,3,14,25,31,22,32,11,01,12,,,,,01.2,00.8,00.9*1D
$GNGSA,A,3,71,70,72,74,75,,,,,,,,01.2,00.8,00.9*1B
$PORZD,A,003.0*3F
$GPGGA,054745.00,4043.9346,N,08403.4310,W,1,13,00.8,273.3,M,-33.4,M,,*6D
$GPRMC,054745.00,A,4043.9346,N,08403.4310,W,00.00,319.9,210914,,,A*44
$GPGSV,4,1,14,01,21,290,30,04,14,306,01,11,08,267,26,12,15,039,25*73
$GPGSV,4,2,14,14,58,063,31,20,07,317,00,22,39,156,43,25,39,070,35*76
$GPGSV,4,3,14,31,72,241,35,32,48,306,36,33,07,104,00,35,15,247,00*71
$GPGSV,4,4,14,48,22,240,00,51,37,213,37*72
$GLGSV,2,1,07,70,14,134,36,71,64,118,25,72,55,331,37,73,56,033,01*6D
$GLGSV,2,2,07,74,66,217,16,75,13,214,25,80,07,034,01*5B
$GNGSA,A,3,14,25,31,22,32,11,01,12,,,,,01.2,00.8,00.9*1D
$GNGSA,A,3,71,70,72,74,75,,,,,,,,01.2,00.8,00.9*1B
$PORZD,A,003.2*3D
$GPGGA,054746.00,4043.9346,N,08403.4310,W,1,12,00.8,273.3,M,-33.4,M,,*6F
$GPRMC,054746.00,A,4043.9346,N,08403.4310,W,00.00,319.9,210914,,,A*47
$GPGSV,4,1,14,01,21,290,30,04,14,306,01,11,08,267,25,12,15,039,24*71
$GPGSV,4,2,14,14,58,063,30,20,07,317,00,22,39,156,42,25,39,070,36*75
$GPGSV,4,3,14,31,72,241,35,32,48,306,36,33,07,104,00,35,15,247,00*71
$GPGSV,4,4,14,48,22,240,00,51,37,213,37*72
$GLGSV,2,1,07,70,14,134,35,71,64,118,26,72,55,331,37,73,56,033,01*6D
$GLGSV,2,2,07,74,66,217,02,75,13,214,25,80,07,034,01*5E
$GNGSA,A,3,14,25,31,22,32,11,01,12,,,,,01.3,00.8,01.0*14
$GNGSA,A,3,71,70,72,75,,,,,,,,,01.3,00.8,01.0*11
$PORZD,A,003.1*3E
$GPGGA,054747.00,4043.9346,N,08403.4310,W,1,13,00.8,273.3,M,-33.4,M,,*6F
$GPRMC,054747.00,A,4043.9346,N,08403.4310,W,00.00,319.9,210914,,,A*46
$GPGSV,4,1,14,01,21,290,30,04,14,306,01,11,08,267,25,12,15,039,23*76
$GPGSV,4,2,14,14,58,063,31,20,07,317,00,22,39,156,43,25,39,070,36*75
$GPGSV,4,3,14,31,72,241,35,32,48,306,36,33,07,104,00,35,15,247,00*71
$GPGSV,4,4,14,48,22,240,00,51,37,213,38*7D
$GLGSV,2,1,07,70,14,134,35,71,64,118,26,72,55,331,37,73,56,033,01*6D
$GLGSV,2,2,07,74,66,217,13,75,13,214,25,80,07,034,01*5E
$GNGSA,A,3,14,25,31,22,32,11,01,12,,,,,01.2,00.8,00.9*1D
$GNGSA,A,3,71,70,72,74,75,,,,,,,,01.2,00.8,00.9*1B
$PORZD,A,003.1*3E
$GPGGA,054748.00,4043.9346,N,08403.4310,W,1,13,00.8,273.3,M,-33.4,M,,*60
$GPRMC,054748.00,A,4043.9346,N,08403.4310,W,00.00,319.9,210914,,,A*49
$GPGSV,4,1,14,01,21,290,30,04,14,306,01,11,08,267,26,12,15,039,23*75
$GPGSV,4,2,14,14,58,063,30,20,07,317,00,22,39,156,43,25,39,070,36*74
$GPGSV,4,3,14,31,72,241,35,32,48,306,36,33,07,104,00,35,15,247,00*71
$GPGSV,4,4,14,48,22,240,00,51,37,213,37*72
$GLGSV,2,1,07,70,14,134,35,71,64,118,26,72,55,331,37,73,56,033,01*6D
$GLGSV,2,2,07,74,66,217,14,75,13,214,26,80,07,034,01*5A
$GNGSA,A,3,14,25,31,22,32,11,01,12,,,,,01.2,00.8,00.9*1D
$GNGSA,A,3,71,70,72,74,75,,,,,,,,01.2,00.8,00.9*1B
$PORZD,A,003.0*3F
$GPGGA,054749.00,4043.9346,N,08403.4310,W,1,13,00.8,273.3,M,-33.4,M,,*61
$GPRMC,054749.00,A,4043.9346,N,08403.4310,W,00.00,319.9,210914,,,A*48
$GPGSV,4,1,14,01,21,290,31,04,14,306,01,11,08,267,26,12,15,039,23*74
$GPGSV,4,2,14,14,58,063,31,20,07,317,00,22,39,156,43,25,39,070,36*75
$GPGSV,4,3,14,31,72,241,35,32,48,306,37,33,07,104,00,35,15,247,00*70
$GPGSV,4,4,14,48,22,240,00,51,37,213,37*72
$GLGSV,2,1,07,70,14,134,35,71,64,118,26,72,55,331,37,73,56,033,01*6D
$GLGSV,2,2,07,74,66,217,13,75,13,214,26,80,07,034,01*5D
$GNGSA,A,3,14,25,31,22,32,11,01,12,,,,,01.2,00.8,00.9*1D
$GNGSA,A,3,71,70,72,74,75,,,,,,,,01.2,00.8,00.9*1B
$PORZD,A,003.0*3F
$GPGGA,054750.00,4043.9346,N,08403.4310,W,1,13,00.8,273.3,M,-33.4,M,,*69
$GPRMC,054750.00,A,4043.9346,N,08403.4310,W,00.00,319.9,210914,,,A*40
$GPGSV,4,1,14,01,21,290,31,04,14,306,01,11,08,267,26,12,15,039,25*72
$GPGSV,4,2,14,14,58,063,31,20,07,317,00,22,39,156,43,25,39,070,36*75
$GPGSV,4,3,14,31,72,241,35,32,48,306,36,33,07,104,00,35,15,247,00*71
$GPGSV,4,4,14,48,22,240,00,51,37,213,38*7D
$GLGSV,2,1,07,70,14,134,34,71,64,118,25,72,55,331,36,73,56,033,01*6E
$GLGSV,2,2,07,74,66,217,15,75,13,214,25,80,07,034,01*58
$GNGSA,A,3,14,25,31,22,32,11,01,12,,,,,01.2,00.8,00.9*1D
$GNGSA,A,3,71,70,72,74,75,,,,,,,,01.2,00.8,00.9*1B
$PORZD,A,002.9*37
$GNGBS,054750.00,1.9,2.2,8.3,,,,*5F
$GPGGA,054751.00,4043.9346,N,08403.4310,W,1,12,00.8,273.3,M,-33.4,M,,*69
$GPRMC,054751.00,A,4043.9346,N,08403.4310,W,00.00,319.9,210914,,,A*41
$GPGSV,4,1,14,01,21,290,31,04,14,306,01,11,08,267,27,12,15,039,25*73
$GPGSV,4,2,14,14,58,063,30,20,07,317,00,22,39,156,43,25,39,070,36*74
$GPGSV,4,3,14,31,72,241,34,32,48,306,37,33,07,104,00,35,15,247,00*71
$GPGSV,4,4,14,48,22,240,00,51,37,213,37*72
$GLGSV,2,1,07,70,14,134,34,71,64,118,26,72,55,331,37,73,56,033,01*6C
$GLGSV,2,2,07,74,66,217,02,75,13,214,26,80,07,034,01*5D
$GNGSA,A,3,14,25,31,22,32,11,01,12,,,,,01.3,00.8,01.0*14
$GNGSA,A,3,71,70,72,75,,,,,,,,,01.3,00.8,01.0*11
$PORZD,A,002.9*37
$GPGGA,054752.00,4043.9346,N,08403.4310,W,1,12,00.8,273.3,M,-33.4,M,,*6A
$GPRMC,054752.00,A,4043.9346,N,08403.4310,W,00.00,319.9,210914,,,A*42
$GPGSV,4,1,14,01,21,290,30,04,14,306,01,11,08,267,27,12,15,039,26*71
$GPGSV,4,2,14,14,58,063,31,20,07,317,00,22,39,156,42,25,39,070,36*74
$GPGSV,4,3,14,31,72,241,34,32,48,306,37,33,07,104,00,35,15,247,00*71
$GPGSV,4,4,14,48,22,240,00,51,37,213,38*7D
$GLGSV,2,1,07,70,14,134,34,71,64,118,26,72,55,331,36,73,56,033,01*6D
$GLGSV,2,2,07,74,66,217,02,75,13,214,26,80,07,034,01*5D
$GNGSA,A,3,14,25,31,22,32,11,01,12,,,,,01.3,00.8,01.0*14
$GNGSA,A,3,71,70,72,75,,,,,,,,,01.3,00.8,01.0*11
$PORZD,A,002.9*37
$GPGGA,054753.00,4043.9346,N,08403.4310,W,1,12,00.8,273.3,M,-33.4,M,,*6B
$GPRMC,054753.00,A,4043.9346,N,08403.4310,W,00.00,319.9,210914,,,A*43
$GPGSV,4,1,14,01,21,290,31,04,14,306,01,11,08,267,27,12,15,039,25*73
$GPGSV,4,2,14,14,58,063,30,20,07,317,00,22,39,156,42,25,39,070,35*76
$GPGSV,4,3,14,31,72,241,34,32,48,306,37,33,07,104,00,35,15,247,00*71
$GPGSV,4,4,14,48,22,240,00,51,37,213,37*72
$GLGSV,2,1,07,70,14,134,34,71,64,118,26,72,55,331,36,73,56,033,01*6D
$GLGSV,2,2,07,74,66,217,01,75,13,214,26,80,07,034,01*5E
$GNGSA,A,3,14,25,31,22,32,11,01,12,,,,,01.3,00.8,01.0*14
$GNGSA,A,3,71,70,72,75,,,,,,,,,01.3,00.8,01.0*11
$PORZD,A,003.0*3F
$GPGGA,054754.00,4043.9346,N,08403.4310,W,1,12,00.8,273.3,M,-33.4,M,,*6C
$GPRMC,054754.00,A,4043.9346,N,08403.4310,W,00.00,319.9,210914,,,A*44
$GPGSV,4,1,14,01,21,290,30,04,14,306,01,11,08,267,28,12,15,039,24*7C
$GPGSV,4,2,14,14,58,063,30,20,07,317,00,22,39,156,42,25,39,070,35*76
$GPGSV,4,3,14,31,72,241,34,32,48,306,37,33,07,104,00,35,15,247,00*71
$GPGSV,4,4,14,48,22,240,00,51,37,213,38*7D
$GLGSV,2,1,07,70,14,134,34,71,64,118,27,72,55,331,36,73,56,033,01*6C
$GLGSV,2,2,07,74,66,217,01,75,13,214,26,80,07,034,01*5E
$GNGSA,A,3,14,25,31,22,32,11,01,12,,,,,01.3,00.8,01.0*14
$GNGSA,A,3,71,70,72,75,,,,,,,,,01.3,00.8,01.0*11
$PORZD,A,003.0*3F
$GPGGA,054755.00,4043.9346,N,08403.4310,W,1,12,00.8,273.3,M,-33.4,M,,*6D
$GPRMC,054755.00,A,4043.9346,N,08403.4310,W,00.00,319.9,210914,,,A*45
$GPGSV,4,1,14,01,21,290,30,04,14,306,01,11,08,267,27,12,15,039,23*74
$GPGSV,4,2,14,14,58,063,29,20,07,317,00,22,39,156,42,25,39,070,36*7D
$GPGSV,4,3,14,31,72,241,35,32,48,306,37,33,07,104,00,35,15,247,00*70
$GPGSV,4,4,14,48,22,240,00,51,37,213,38*7D
$GLGSV,2,1,07,70,14,134,35,71,64,118,28,72,55,331,36,73,56,033,01*62
$GLGSV,2,2,07,74,66,217,01,75,13,214,26,80,07,034,01*5E
$GNGSA,A,3,14,25,31,22,32,11,01,12,,,,,01.3,00.8,01.0*14
$GNGSA,A,3,71,70,72,75,,,,,,,,,01.3,00.8,01.0*11
$PORZD,A,003.1*3E
$GPGGA,054756.00,4043.9346,N,08403.4310,W,1,12,00.8,273.3,M,-33.4,M,,*6E
$GPRMC,054756.00,A,4043.9346,N,08403.4310,W,00.00,319.9,210914,,,A*46
$GPGSV,4,1,14,01,21,290,30,04,14,306,01,11,08,267,27,12,15,039,22*75
$GPGSV,4,2,14,14,58,063,30,20,07,317,00,22,39,156,42,25,39,070,35*76
$GPGSV,4,3,14,31,72,241,35,32,48,306,37,33,07,104,00,35,15,247,00*70
$GPGSV,4,4,14,48,22,240,00,51,37,213,38*7D
$GLGSV,2,1,07,70,14,134,34,71,64,118,28,72,55,331,36,73,56,033,01*63
$GLGSV,2,2,07,74,66,217,01,75,13,214,25,80,07,034,01*5D
$GNGSA,A,3,14,25,31,22,32,11,01,12,,,,,01.3,00.8,01.0*14
$GNGSA,A,3,71,70,72,75,,,,,,,,,01.3,00.8,01.0*11
$PORZD,A,003.1*3E
$GPGGA,054757.00,4043.9346,N,08403.4310,W,1,12,00.8,273.3,M,-33.4,M,,*6F
$GPRMC,054757.00,A,4043.9346,N,08403.4310,W,00.00,319.9,210914,,,A*47
$GPGSV,4,1,14,01,21,290,29,04,14,306,01,11,08,267,27,12,15,039,21*7E
$GPGSV,4,2,14,14,58,063,31,20,07,317,00,22,39,156,42,25,39,070,36*74
$GPGSV,4,3,14,31,72,241,35,32,48,306,36,33,07,104,00,35,15,247,00*71
$GPGSV,4,4,14,48,22,240,00,51,37,213,38*7D
$GLGSV,2,1,07,70,14,134,35,71,64,118,29,72,55,331,36,73,56,033,01*63
$GLGSV,2,2,07,74,66,217,01,75,13,214,26,80,07,034,01*5E
$GNGSA,A,3,14,25,31,22,32,11,01,12,,,,,01.3,00.8,01.0*14
$GNGSA,A,3,71,70,72,75,,,,,,,,,01.3,00.8,01.0*11
$PORZD,A,003.2*3D
$GPGGA,054758.00,4043.9346,N,08403.4310,W,1,12,00.8,273.2,M,-33.4,M,,*61
$GPRMC,054758.00,A,4043.9346,N,08403.4310,W,00.00,319.9,210914,,,A*48
$GPGSV,4,1,14,01,21,290,30,04,14,306,01,11,08,267,26,12,15,039,22*74
$GPGSV,4,2,14,14,58,063,30,20,07,317,00,22,39,156,42,25,39,070,35*76
$GPGSV,4,3,14,31,72,241,35,32,48,306,36,33,07,104,00,35,15,247,00*71
$GPGSV,4,4,14,48,22,240,00,51,37,213,38*7D
$GLGSV,2,1,07,70,14,134,35,71,64,118,29,72,55,331,36,73,56,033,01*63
$GLGSV,2,2,07,74,66,217,01,75,13,214,26,80,07,034,01*5E
$GNGSA,A,3,14,25,31,22,32,11,01,12,,,,,01.3,00.8,01.0*14
$GNGSA,A,3,71,70,72,75,,,,,,,,,01.3,00.8,01.0*11
$PORZD,A,003.2*3D
$GPGGA,054759.00,4043.9346,N,08403.4310,W,1,12,00.8,273.2,M,-33.4,M,,*60
$GPRMC,054759.00,A,4043.9346,N,08403.4310,W,00.00,319.9,210914,,,A*49
$GPGSV,4,1,14,01,21,290,30,04,14,306,01,11,08,267,26,12,15,039,23*75
$GPGSV,4,2,14,14,58,063,29,20,07,317,00,22,39,156,42,25,39,070,35*7E
$GPGSV,4,3,14,31,72,241,35,32,48,306,37,33,07,104,00,35,15,247,00*70
$GPGSV,4,4,14,48,22,240,00,51,37,213,38*7D
$GLGSV,2,1,07,70,14,134,35,71,64,118,30,72,55,331,36,73,56,033,01*6B
$GLGSV,2,2,07,74,66,217,01,75,13,214,26,80,07,034,01*5E
$GNGSA,A,3,14,25,31,22,32,11,01,12,,,,,01.3,00.8,01.0*14
$GNGSA,A,3,71,70,72,75,,,,,,,,,01.3,00.8,01.0*11
$PORZD,A,003.2*3D
$GPGGA,054800.00,4043.9346,N,08403.4310,W,1,12,00.8,273.2,M,-33.4,M,,*63
$GPRMC,054800.00,A,4043.9346,N,08403.4310,W,00.00,319.9,210914,,,A*4A
$GPGSV,4,1,14,01,21,290,30,04,14,306,01,11,08,267,26,12,15,038,22*75
$GPGSV,4,2,14,14,58,063,29,20,07,317,00,22,39,156,42,25,39,069,35*76
$GPGSV,4,3,14,31,72,241,35,32,48,306,37,33,07,104,00,35,15,247,00*70
$GPGSV,4,4,14,48,22,240,00,51,37,213,38*7D
$GLGSV,2,1,07,70,14,134,35,71,64,118,30,72,55,331,36,73,56,033,01*6B
$GLGSV,2,2,07,74,66,217,01,75,13,214,26,80,07,034,01*5E
$GNGSA,A,3,14,25,31,22,32,11,01,12,,,,,01.3,00.8,01.0*14
$GNGSA,A,3,71,70,72,75,,,,,,,,,01.3,00.8,01.0*11
$PORZD,A,003.2*3D
$GNGBS,054800.00,2.1,2.4,8.4,,,,*5F
$GPGGA,054801.00,4043.9346,N,08403.4310,W,1,12,00.8,273.2,M,-33.4,M,,*62
$GPRMC,054801.00,A,4043.9346,N,08403.4310,W,00.00,319.9,210914,,,A*4B
$GPGSV,4,1,14,01,21,290,31,04,14,306,01,11,08,267,25,12,15,038,23*76
$GPGSV,4,2,14,14,58,063,30,20,07,317,00,22,39,156,42,25,39,069,35*7E
$GPGSV,4,3,14,31,72,242,35,32,48,305,37,33,07,104,00,35,15,247,00*70
$GPGSV,4,4,14,48,22,240,00,51,37,213,38*7D
$GLGSV,2,1,07,70,13,134,35,71,64,119,30,72,55,331,36,73,56,033,01*6D
$GLGSV,2,2,07,74,66,217,01,75,13,214,26,80,07,034,01*5E
$GNGSA,A,3,14,25,31,22,32,11,01,12,,,,,01.3,00.8,01.0*14
$GNGSA,A,3,71,70,72,75,,,,,,,,,01.3,00.8,01.0*11
$PORZD,A,003.3*3C
$GPGGA,054802.00,4043.9346,N,08403.4310,W,1,12,00.8,273.2,M,-33.4,M,,*61
$GPRMC,054802.00,A,4043.9346,N,08403.4310,W,00.00,319.9,210914,,,A*48
$GPGSV,4,1,14,01,21,290,31,04,14,306,01,11,08,267,25,12,15,038,24*71
$GPGSV,4,2,14,14,58,063,30,20,07,317,00,22,39,156,42,25,39,069,35*7E
$GPGSV,4,3,14,31,72,242,35,32,48,305,37,33,07,104,00,35,15,247,00*70
$GPGSV,4,4,14,48,22,240,00,51,37,213,37*72
$GLGSV,2,1,07,70,13,134,35,71,64,119,30,72,55,331,36,73,56,033,01*6D
$GLGSV,2,2,07,74,66,217,01,75,13,214,25,80,07,034,01*5D
$GNGSA,A,3,14,25,31,22,32,11,01,12,,,,,01.3,00.8,01.0*14
$GNGSA,A,3,71,70,72,75,,,,,,,,,01.3,00.8,01.0*11
$PORZD,A,003.4*3B
$GPGGA,054803.00,4043.9346,N,08403.4310,W,1,12,00.8,273.2,M,-33.4,M,,*60
$GPRMC,054803.00,A,4043.9346,N,08403.4310,W,00.00,319.9,210914,,,A*49
$GPGSV,4,1,14,01,21,290,31,04,14,306,01,11,08,267,25,12,15,038,24*71
$GPGSV,4,2,14,14,58,063,30,20,07,317,00,22,39,156,42,25,39,069,35*7E
$GPGSV,4,3,14,31,72,242,35,32,48,305,37,33,07,104,00,35,15,247,00*70
$GPGSV,4,4,14,48,22,240,00,51,37,213,38*7D
$GLGSV,2,1,07,70,13,134,35,71,64,119,30,72,55,331,36,73,56,033,01*6D
$GLGSV,2,2,07,74,66,217,01,75,13,214,25,80,07,034,01*5D
$GNGSA,A,3,14,25,31,22,32,11,01,12,,,,,01.3,00.8,01.0*14
$GNGSA,A,3,71,70,72,75,,,,,,,,,01.3,00.8,01.0*11
$PORZD,A,003.4*3B
$GPGGA,054804.00,4043.9346,N,08403.4310,W,1,12,00.8,273.2,M,-33.4,M,,*67
$GPRMC,054804.00,A,4043.9346,N,08403.4310,W,00.00,319.9,210914,,,A*4E
$GPGSV,4,1,14,01,21,290,31,04,14,306,01,11,08,267,25,12,15,038,24*71
$GPGSV,4,2,14,14,58,063,30,20,07,317,00,22,39,156,42,25,39,069,35*7E
$GPGSV,4,3,14,31,72,242,35,32,48,305,37,33,07,104,00,35,15,247,00*70
$GPGSV,4,4,14,48,22,240,00,51,37,213,38*7D
$GLGSV,2,1,07,70,13,134,35,71,64,119,29,72,55,331,36,73,56,033,01*65
$GLGSV,2,2,07,74,66,217,01,75,13,214,24,80,07,034,01*5C
$GNGSA,A,3,14,25,31,22,32,11,01,12,,,,,01.3,00.8,01.0*14
$GNGSA,A,3,71,70,72,75,,,,,,,,,01.3,00.8,01.0*11
$PORZD,A,003.5*3A
$GPGGA,054805.00,4043.9346,N,08403.4310,W,1,12,00.8,273.2,M,-33.4,M,,*66
$GPRMC,054805.00,A,4043.9346,N,08403.4310,W,00.00,319.9,210914,,,A*4F
$GPGSV,4,1,14,01,21,290,31,04,14,306,01,11,08,267,24,12,15,038,25*71
$GPGSV,4,2,14,14,58,063,30,20,07,317,00,22,39,156,42,25,39,069,35*7E
$GPGSV,4,3,14,31,72,242,36,32,48,305,37,33,07,104,00,35,15,247,00*73
$GPGSV,4,4,14,48,22,240,00,51,37,213,38*7D
$GLGSV,2,1,07,70,13,134,34,71,64,119,29,72,55,331,36,73,56,033,01*64
$GLGSV,2,2,07,74,66,217,01,75,13,214,25,80,07,034,01*5D
$GNGSA,A,3,14,25,31,22,32,11,01,12,,,,,01.3,00.8,01.0*14
$GNGSA,A,3,71,70,72,75,,,,,,,,,01.3,00.8,01.0*11
$PORZD,A,003.6*39
$GPGGA,054806.00,4043.9346,N,08403.4310,W,1,12,00.8,273.2,M,-33.4,M,,*65
$GPRMC,054806.00,A,4043.9346,N,08403.4310,W,00.00,319.9,210914,,,A*4C
$GPGSV,4,1,14,01,21,290,30,04,14,306,01,11,08,267,23,12,15,038,26*74
$GPGSV,4,2,14,14,58,063,30,20,07,317,00,22,39,156,42,25,39,069,36*7D
$GPGSV,4,3,14,31,72,242,36,32,48,305,37,33,07,104,00,35,15,247,00*73
$GPGSV,4,4,14,48,22,240,00,51,37,213,38*7D
$GLGSV,2,1,07,70,13,134,35,71,64,119,28,72,55,331,36,73,56,033,01*64
$GLGSV,2,2,07,74,66,217,01,75,13,214,25,80,07,034,01*5D
$GNGSA,A,3,14,25,31,22,32,11,01,12,,,,,01.3,00.8,01.0*14
$GNGSA,A,3,71,70,72,75,,,,,,,,,01.3,00.8,01.0*11
$PORZD,A,003.6*39
$GPGGA,054807.00,4043.9346,N,08403.4310,W,1,12,00.8,273.2,M,-33.4,M,,*64
$GPRMC,054807.00,A,4043.9346,N,08403.4310,W,00.00,319.9,210914,,,A*4D
$GPGSV,4,1,14,01,21,290,31,04,14,306,01,11,08,267,23,12,15,038,26*75
$GPGSV,4,2,14,14,58,063,31,20,07,317,00,22,39,156,42,25,39,069,36*7C
$GPGSV,4,3,14,31,72,242,35,32,48,305,37,33,07,104,00,35,15,247,00*70
$GPGSV,4,4,14,48,22,240,00,51,37,213,38*7D
$GLGSV,2,1,07,70,13,134,35,71,64,119,28,72,55,331,36,73,56,033,01*64
$GLGSV,2,2,07,74,66,217,01,75,13,214,25,80,07,034,01*5D
$GNGSA,A,3,14,25,31,22,32,11,01,12,,,,,01.3,00.8,01.0*14
$GNGSA,A,3,71,70,72,75,,,,,,,,,01.3,00.8,01.0*11
$PORZD,A,003.5*3A
$GPGGA,054808.00,4043.9346,N,08403.4310,W,1,12,00.8,273.1,M,-33.4,M,,*68
$GPRMC,054808.00,A,4043.9346,N,08403.4310,W,00.00,319.9,210914,,,A*42
$GPGSV,4,1,14,01,21,290,31,04,14,306,01,11,08,267,23,12,15,038,26*75
$GPGSV,4,2,14,14,58,063,31,20,07,317,00,22,39,156,43,25,39,069,36*7D
$GPGSV,4,3,14,31,72,242,35,32,48,305,37,33,07,104,00,35,15,247,00*70
$GPGSV,4,4,14,48,22,240,00,51,37,213,38*7D
$GLGSV,2,1,07,70,13,134,35,71,64,119,28,72,55,331,36,73,56,033,01*64
$GLGSV,2,2,07,74,66,217,01,75,13,214,26,80,07,034,01*5E
$GNGSA,A,3,14,25,31,22,32,11,01,12,,,,,01.3,00.8,01.0*14
$GNGSA,A,3,71,70,72,75,,,,,,,,,01.3,00.8,01.0*11
$PORZD,A,003.4*3B
$GPGGA,054809.00,4043.9346,N,08403.4310,W,1,13,00.7,273.1,M,-33.4,M,,*67
$GPRMC,054809.00,A,4043.9346,N,08403.4310,W,00.00,319.9,210914,,,A*43
$GPGSV,4,1,14,01,21,290,32,04,14,306,01,11,08,267,22,12,15,038,27*76
$GPGSV,4,2,14,14,58,063,31,20,07,317,00,22,39,156,43,25,39,069,36*7D
$GPGSV,4,3,14,31,72,242,35,32,48,305,37,33,07,104,00,35,15,247,00*70
$GPGSV,4,4,14,48,22,240,00,51,37,213,38*7D
$GLGSV,2,1,07,70,13,134,35,71,64,119,27,72,55,331,36,73,56,033,17*6C
$GLGSV,2,2,07,74,66,217,01,75,13,214,25,80,07,034,01*5D
$GNGSA,A,3,14,25,31,22,32,11,01,12,,,,,01.3,00.7,01.0*1B
$GNGSA,A,3,71,70,72,73,75,,,,,,,,01.3,00.7,01.0*1A
$PORZD,A,003.4*3B
$GPGGA,054810.00,4043.9346,N,08403.4310,W,1,13,00.7,273.1,M,-33.4,M,,*6F
$GPRMC,054810.00,A,4043.9346,N,08403.4310,W,00.00,319.9,210914,,,A*4B
$GPGSV,4,1,14,01,21,290,31,04,14,306,01,11,08,267,23,12,15,038,26*75
$GPGSV,4,2,14,14,58,063,31,20,07,317,00,22,39,156,43,25,39,069,36*7D
$GPGSV,4,3,14,31,72,242,36,32,48,305,37,33,07,104,00,35,15,247,00*73
$GPGSV,4,4,14,48,22,240,00,51,37,213,38*7D
$GLGSV,2,1,07,70,13,134,35,71,64,119,28,72,55,331,37,73,56,033,17*62
$GLGSV,2,2,07,74,66,217,01,75,13,214,25,80,07,034,01*5D
$GNGSA,A,3,14,25,31,22,32,11,01,12,,,,,01.3,00.7,01.0*1B
$GNGSA,A,3,71,70,72,73,75,,,,,,,,01.3,00.7,01.0*1A
$PORZD,A,003.3*3C
$GNGBS,054810.00,2.2,2.4,8.4,,,,*5D
